[
{"id": "1", "name": "宝山发卡分中心", "address": "殷高西路高境二村19号3楼", "chargeable": "是", "phone": "56822398", "coordinate": {"lng": 121.48538304989334, "lat": 31.3269174380992}},
{"id": "2", "name": "崇明发卡分中心", "address": "西门路328号", "chargeable": "是", "phone": "39610522", "coordinate": {"lng": 121.40005904791018, "lat": 31.630584920621246}},
{"id": "3", "name": "奉贤发卡分中心", "address": "沪杭公路1807号", "chargeable": "是", "phone": "33658217", "coordinate": {"lng": 121.46013529499263, "lat": 30.935425806086208}},
{"id": "4", "name": "嘉定发卡分中心", "address": "塔城路575号", "chargeable": "是", "phone": "59913692", "coordinate": {"lng": 121.24806831758922, "lat": 31.379924324566222}},
{"id": "5", "name": "金山发卡分中心", "address": "金山区朱泾镇万安街336号", "chargeable": "是", "phone": "57321437", "coordinate": {"lng": 121.17969436232464, "lat": 30.903162041207118}},
{"id": "6", "name": "金山卫加油站", "address": "沪杭公路8888号", "chargeable": "是", "phone": "57932899", "coordinate": {"lng": 121.33154908200494, "lat": 30.722500147003817}},
{"id": "7", "name": "闵行发卡分中心", "address": "沪闵路9501号101室", "chargeable": "是", "phone": "64365551", "coordinate": {"lng": 121.44132888286987, "lat": 31.171556857935627}},
{"id": "8", "name": "浦东发卡分中心", "address": "浦东北路2138号", "chargeable": "是", "phone": "50757713", "coordinate": {"lng": 121.58489057094653, "lat": 31.323241849437853}},
{"id": "9", "name": "青浦发卡分中心", "address": "公园东路555号", "chargeable": "是", "phone": "69713315", "coordinate": {"lng": 121.15688610605329, "lat": 31.156755848139646}},
{"id": "10", "name": "市区发卡中心", "address": "武夷路562号", "chargeable": "是", "phone": "62105252*1075", "coordinate": {"lng": 121.42492382822282, "lat": 31.218828920397307}},
{"id": "11", "name": "香港路服务部", "address": "香港路60", "chargeable": "是", "phone": "63210872", "coordinate": {"lng": 94.36262561478304, "lat": 29.668776984154057}},
{"id": "12", "name": "新泾服务部", "address": "天山路90号", "chargeable": "是", "phone": "52061320", "coordinate": {"lng": 121.38724142033419, "lat": 31.221669361415582}},
{"id": "13", "name": "康定路服务部", "address": "康定路358号", "chargeable": "是", "phone": "62535976", "coordinate": {"lng": 121.4562162835951, "lat": 31.241383815806245}},
{"id": "14", "name": "松江发卡分中心", "address": "沪松路21号", "chargeable": "是", "phone": "57741581", "coordinate": {"lng": 121.25007273811433, "lat": 31.02453195829392}},
{"id": "15", "name": "上海VIP中心", "address": "威海路48号7楼", "chargeable": "是", "phone": "53857277", "coordinate": {"lng": 121.47706204236118, "lat": 31.234371261063735}},
{"id": "16", "name": "淞宝加油站", "address": "牡丹江路143号", "chargeable": "是", "phone": "56161946", "coordinate": {"lng": 121.5050863050847, "lat": 31.383197169980786}},
{"id": "17", "name": "罗店加油站", "address": "月罗路2728号", "chargeable": "是", "phone": "56861623", "coordinate": {"lng": 121.35150925167386, "lat": 31.412223494800923}},
{"id": "18", "name": "石洞口加油站", "address": "蕴川路5288号", "chargeable": "是", "phone": "56152502", "coordinate": {"lng": 121.41564500663276, "lat": 31.448826740141573}},
{"id": "19", "name": "第十七加油站", "address": "同济路1151号", "chargeable": "是", "phone": "36212042", "coordinate": {"lng": 121.48300788662134, "lat": 31.410771295639943}},
{"id": "20", "name": "堡镇加油站", "address": "堡镇北路312号", "chargeable": "是", "phone": "39661192", "coordinate": {"lng": 121.63734538567543, "lat": 31.557566116470163}},
{"id": "21", "name": "奉城加油站", "address": "川南奉公路9999号", "chargeable": "是", "phone": "57522243", "coordinate": {"lng": 121.64583839984832, "lat": 30.917183164219143}},
{"id": "22", "name": "槎山加油站", "address": "南翔镇翔江路535号", "chargeable": "是", "phone": "59176464", "coordinate": {"lng": 121.29850147061538, "lat": 31.30153369270214}},
{"id": "23", "name": "吉泰加油站", "address": "宝安公路4205号", "chargeable": "是", "phone": "59505065", "coordinate": {"lng": 121.23687999971672, "lat": 31.32377188002155}},
{"id": "24", "name": "西上海加油站", "address": "安亭镇墨玉南路969号", "chargeable": "是", "phone": "59564147", "coordinate": {"lng": 121.16938202527359, "lat": 31.292247209112684}},
{"id": "29", "name": "真新加油站", "address": "曹安路1405号", "chargeable": "是", "phone": "59196137", "coordinate": {"lng": 121.38081562991952, "lat": 31.256228698286712}},
{"id": "30", "name": "龙胜路加油站", "address": "龙胜路731号", "chargeable": "是", "phone": "57961434", "coordinate": {"lng": 121.34021616263311, "lat": 30.729588864053103}},
{"id": "31", "name": "亭林加油站", "address": "南亭公路6000号", "chargeable": "是", "phone": "57233574", "coordinate": {"lng": 121.33559739010774, "lat": 30.890526654474332}},
{"id": "32", "name": "闵春加油站", "address": "中春路4058号", "chargeable": "是", "phone": "54421822", "coordinate": {"lng": 121.3806403309891, "lat": 31.097866277614724}},
{"id": "33", "name": "闵鹤加油站", "address": "沪闵路2778号", "chargeable": "是", "phone": "64901495", "coordinate": {"lng": 121.4140726066794, "lat": 31.05496565114382}},
{"id": "34", "name": "宏浦加油站（闵鲁）", "address": "三鲁公路2185号", "chargeable": "是", "phone": "64917657  64915123", "coordinate": {"lng": 121.53380213818645, "lat": 31.067518938574292}},
{"id": "35", "name": "七宝加油站", "address": "吴宝路298号", "chargeable": "是", "phone": "64780356", "coordinate": {"lng": 121.35463759432422, "lat": 31.1675545590724}},
{"id": "36", "name": "芦潮港加油中心", "address": "芦潮港镇杭湾路122号", "chargeable": "是", "phone": "58285102 58281789", "coordinate": {"lng": 121.85593323823343, "lat": 30.860931166568246}},
{"id": "37", "name": "南汇加油中心", "address": "惠南镇城南路1068号", "chargeable": "是", "phone": "68003566", "coordinate": {"lng": 121.78007519344304, "lat": 31.047154078389678}},
{"id": "38", "name": "周浦加油站", "address": "周浦镇康沈路1501号", "chargeable": "是", "phone": "68124764", "coordinate": {"lng": 121.58209697735293, "lat": 31.12520923776568}},
{"id": "39", "name": "北蔡加油站", "address": "沪南公路1133号", "chargeable": "是", "phone": "50427009 58913348", "coordinate": {"lng": 121.56283848938905, "lat": 31.18631785186552}},
{"id": "40", "name": "川沙加油站", "address": "华夏东路2311号", "chargeable": "是", "phone": "58901214", "coordinate": {"lng": 113.18352101134911, "lat": 23.10211316018187}},
{"id": "41", "name": "三林加油站", "address": "上南路4127号(因市政工程拆除重建，网点临时搬迁至耀华路650号)", "chargeable": "是", "phone": "58410218    50842125", "coordinate": {"lng": 121.48428181896527, "lat": 31.175667948103943}},
{"id": "42", "name": "施湾加油站", "address": "川南奉公路2855号", "chargeable": "是", "phone": "68963834", "coordinate": {"lng": 121.75966847790173, "lat": 31.16479888081103}},
{"id": "43", "name": "塘桥加油站", "address": "浦东南路2177号", "chargeable": "是", "phone": "58893881", "coordinate": {"lng": 116.27038581163536, "lat": 39.95754571848178}},
{"id": "44", "name": "大盈加油站", "address": "大盈镇香大路口", "chargeable": "是", "phone": "59221324", "coordinate": {"lng": 121.10090081412771, "lat": 31.21534518850801}},
{"id": "45", "name": "青浦第四加油站", "address": "朱家角镇318国道6285号", "chargeable": "是", "phone": "59248601", "coordinate": {"lng": 121.03981876850135, "lat": 31.10608915353645}},
{"id": "46", "name": "赵巷加油站", "address": "沪青平公路2528号", "chargeable": "是", "phone": "59756004", "coordinate": {"lng": 121.2499984078249, "lat": 31.158635077667487}},
{"id": "47", "name": "打浦加油站", "address": "打浦路159号", "chargeable": "是", "phone": "63043543", "coordinate": {"lng": 121.4777144978226, "lat": 31.20861461901823}},
{"id": "48", "name": "高虹加油站", "address": "周家嘴路678号", "chargeable": "是", "phone": "35110374", "coordinate": {"lng": 121.50816557240675, "lat": 31.263278213753633}},
{"id": "49", "name": "第八加油站", "address": "广中路290号", "chargeable": "是", "phone": "56658604", "coordinate": {"lng": 121.48132804582127, "lat": 31.283434914451536}},
{"id": "50", "name": "第十加油站", "address": "天目中路620号", "chargeable": "是", "phone": "63813660", "coordinate": {"lng": 121.4698989479365, "lat": 31.250512029345693}},
{"id": "51", "name": "第十四加油站", "address": "中山北路2932号", "chargeable": "是", "phone": "62548777", "coordinate": {"lng": 121.42295342562907, "lat": 31.245363940158335}},
{"id": "52", "name": "第十五加油站", "address": "周家嘴路3299号", "chargeable": "是", "phone": "65430383", "coordinate": {"lng": 121.54113536987813, "lat": 31.282774507731794}},
{"id": "57", "name": "龙华加油站", "address": "龙吴路2号", "chargeable": "是", "phone": "54103091", "coordinate": {"lng": 121.4515965777303, "lat": 31.18022635491894}},
{"id": "58", "name": "宁国加油站", "address": "长阳路1673号", "chargeable": "是", "phone": "65187541", "coordinate": {"lng": 121.54022005225839, "lat": 31.276150108570786}},
{"id": "59", "name": "桃浦加油站", "address": "真南路825号", "chargeable": "是", "phone": "63637509", "coordinate": {"lng": 121.3900723807421, "lat": 31.275649034765827}},
{"id": "60", "name": "宜山加油站", "address": "宜山路771号", "chargeable": "是", "phone": "64083254", "coordinate": {"lng": 121.41645683885886, "lat": 31.178973001774686}},
{"id": "61", "name": "永兴油气站", "address": "西藏北路551号", "chargeable": "是", "phone": "56301491", "coordinate": {"lng": 121.47539284699478, "lat": 31.257573170980436}},
{"id": "62", "name": "中山南一路加油站", "address": "中山南一路445号", "chargeable": "是", "phone": "63024275", "coordinate": {"lng": 121.49138146158027, "lat": 31.205981596344024}},
{"id": "63", "name": "九亭加油站", "address": "沪松公路1112号", "chargeable": "是", "phone": "67638028", "coordinate": {"lng": 121.33554172121697, "lat": 31.151631674993958}},
{"id": "64", "name": "昆岗加油站", "address": "小昆山镇秦安街44号", "chargeable": "是", "phone": "57763433", "coordinate": {"lng": 121.14039933974044, "lat": 31.05940037607877}},
{"id": "65", "name": "泗泾加油站", "address": "泗泾镇沪松公路2839号", "chargeable": "是", "phone": "57615884", "coordinate": {"lng": 121.28297302829856, "lat": 31.114559050055774}},
{"id": "66", "name": "松泖加油站", "address": "泖港镇叶新公路2911号", "chargeable": "是", "phone": "57865503", "coordinate": {"lng": 121.24107426539707, "lat": 30.94383911984294}},
{"id": "67", "name": "松浜加油站", "address": "车墩镇三浜村车新公路北侧", "chargeable": "是", "phone": "57609515", "coordinate": {"lng": 121.3117471650211, "lat": 31.060022316030878}},
{"id": "68", "name": "宝安路加油站", "address": "宝安公路1253号", "chargeable": "是", "phone": "66040693", "coordinate": {"lng": 121.38876230366431, "lat": 31.36490706842001}},
{"id": "69", "name": "明和加油站", "address": "南陈路1号", "chargeable": "是", "phone": "66120452", "coordinate": {"lng": 116.6238732518476, "lat": 40.14811280092473}},
{"id": "70", "name": "淞南加油站", "address": "长江南路771号", "chargeable": "是", "phone": "66148425", "coordinate": {"lng": 121.48547172522346, "lat": 31.345289650983176}},
{"id": "71", "name": "杨北加油站", "address": "蕴川路2381号", "chargeable": "是", "phone": "33852549", "coordinate": {"lng": 121.43130641822721, "lat": 31.398174970819404}},
{"id": "72", "name": "城桥加油站", "address": "城桥镇育林桥路东首", "chargeable": "是", "phone": "59615609", "coordinate": {"lng": 121.41515111227466, "lat": 31.642237581763002}},
{"id": "73", "name": "肖塘加油站", "address": "沪杭公路808号", "chargeable": "是", "phone": "57433040", "coordinate": {"lng": 121.4474540697185, "lat": 30.973493251986397}},
{"id": "74", "name": "化工区一站", "address": "目华路188号", "chargeable": "是", "phone": "67120639    67120079", "coordinate": {"lng": 121.47150169205112, "lat": 30.82531726593715}},
{"id": "75", "name": "高家加油站", "address": "曹安公路16号桥西首", "chargeable": "是", "phone": "39117580    39117574", "coordinate": {"lng": 121.28545322376075, "lat": 31.275611782618885}},
{"id": "76", "name": "嘉定加油站", "address": "沪宜公路3145号", "chargeable": "是", "phone": "59161649", "coordinate": {"lng": 120.37860033685536, "lat": 31.58562466883967}},
{"id": "77", "name": "外冈加油站", "address": "嘉松北路3号", "chargeable": "是", "phone": "59588636", "coordinate": {"lng": 121.18033521976359, "lat": 31.37269262516185}},
{"id": "78", "name": "枫泾加油站", "address": "朱枫公路9990号", "chargeable": "是", "phone": "57351575", "coordinate": {"lng": 121.01533865338774, "lat": 30.889797825547113}},
{"id": "79", "name": "航华加油站", "address": "华翔路1285号", "chargeable": "是", "phone": "52271350 52270744", "coordinate": {"lng": 121.31590105430291, "lat": 31.19630372566532}},
{"id": "80", "name": "沪星加油站", "address": "七莘路3600号", "chargeable": "是", "phone": "64191136", "coordinate": {"lng": 121.34920384310796, "lat": 31.172268256198564}},
{"id": "85", "name": "华剑加油站", "address": "虹梅南路5288号", "chargeable": "是", "phone": "64502222", "coordinate": {"lng": 121.45963632041745, "lat": 31.052479564314115}},
{"id": "86", "name": "闵行开发区加油站", "address": "东川路3300号", "chargeable": "是", "phone": "64300580", "coordinate": {"lng": 121.70018711276371, "lat": 31.285635816965744}},
{"id": "87", "name": "闵虹加油站", "address": "虹梅南路1008号", "chargeable": "是", "phone": "64553634", "coordinate": {"lng": 121.43084037732864, "lat": 31.129942691289244}},
{"id": "88", "name": "闵吴加油站", "address": "龙吴路5258号", "chargeable": "是", "phone": "64502537", "coordinate": {"lng": 121.47272390137545, "lat": 31.056431713918187}},
{"id": "89", "name": "莘庄加油站", "address": "沪闵路5515号", "chargeable": "是", "phone": "64922265", "coordinate": {"lng": 121.3911129059804, "lat": 31.105495717393115}},
{"id": "90", "name": "大团加油站", "address": "南芦公路879号", "chargeable": "是", "phone": "58082237 58080101", "coordinate": {"lng": 121.74290743286582, "lat": 30.97254666086116}},
{"id": "91", "name": "南汇加油站", "address": "惠南镇车站路28号", "chargeable": "是", "phone": "58007543    58007680", "coordinate": {"lng": 121.7701416826052, "lat": 31.051225463350423}},
{"id": "92", "name": "华宏加油站", "address": "南六公路1756号", "chargeable": "是", "phone": "58160333", "coordinate": {"lng": 121.70256496449767, "lat": 31.134996600636516}},
{"id": "93", "name": "航头加油站", "address": "沪南公路5475号", "chargeable": "是", "phone": "58222525", "coordinate": {"lng": 121.60414131911013, "lat": 31.039332613154695}},
{"id": "94", "name": "楼厦加油站", "address": "川周公路6899号", "chargeable": "是", "phone": "58945872", "coordinate": {"lng": 121.68876822074635, "lat": 31.17375695731031}},
{"id": "95", "name": "沪东加油站", "address": "浦东大道2629号", "chargeable": "是", "phone": "58713354    58713162", "coordinate": {"lng": 121.57294411017276, "lat": 31.269224350968724}},
{"id": "96", "name": "浦港加油站", "address": "龙东大道4185号", "chargeable": "是", "phone": "58582729", "coordinate": {"lng": 121.66423016492735, "lat": 31.235137480441296}},
{"id": "97", "name": "八灶加油站", "address": "川六公路1122号", "chargeable": "是", "phone": "58590244", "coordinate": {"lng": 121.72275305224058, "lat": 31.164124622101728}},
{"id": "98", "name": "龙东加油站", "address": "海徐路815号", "chargeable": "是", "phone": "58480287", "coordinate": {"lng": 121.622521196014, "lat": 31.343272822626577}},
{"id": "99", "name": "浦城加油站", "address": "商城路370号", "chargeable": "是", "phone": "58401347", "coordinate": {"lng": 121.51927313800374, "lat": 31.234877737172916}},
{"id": "100", "name": "唐陆加油站", "address": "唐陆路725号", "chargeable": "是", "phone": "58992899", "coordinate": {"lng": 121.63628220607046, "lat": 31.255013584788863}},
{"id": "101", "name": "青沈加油站", "address": "朱家角镇沈巷沈砖公路1088号", "chargeable": "是", "phone": "59834432", "coordinate": {"lng": 121.07782237271151, "lat": 31.082686000130536}},
{"id": "102", "name": "青新加油站", "address": "华新镇周浜村", "chargeable": "是", "phone": "59794398", "coordinate": {"lng": 121.2221751957559, "lat": 31.24041200346228}},
{"id": "103", "name": "虹桥机场加油站", "address": "虹桥机场迎宾三路253号", "chargeable": "是", "phone": "22341276", "coordinate": {"lng": 121.35507190078404, "lat": 31.191342131264047}},
{"id": "104", "name": "宝源加油站", "address": "真南路1749号", "chargeable": "是", "phone": "62509759", "coordinate": {"lng": 121.3720295606418, "lat": 31.280809457701963}},
{"id": "105", "name": "古浪加油站", "address": "古浪路531号", "chargeable": "是", "phone": "62503614", "coordinate": {"lng": 121.38860113597785, "lat": 31.289211893987446}},
{"id": "106", "name": "国货油气站", "address": "国货路398-408号", "chargeable": "是", "phone": "63137224", "coordinate": {"lng": 121.49849392570982, "lat": 31.214449887738287}},
{"id": "107", "name": "金菱加油站", "address": "汶水路440号", "chargeable": "是", "phone": "56655263", "coordinate": {"lng": 121.44345546665619, "lat": 31.296299572113885}},
{"id": "108", "name": "普善加油站", "address": "普善路265号", "chargeable": "是", "phone": "56551079", "coordinate": {"lng": 121.46151391727234, "lat": 31.264877252332244}},
{"id": "113", "name": "第五十一加油站", "address": "国伟路557号", "chargeable": "是", "phone": "65241043", "coordinate": {"lng": 121.53694829333676, "lat": 31.337551091974028}},
{"id": "114", "name": "双花加油站", "address": "杨树浦路1504号", "chargeable": "是", "phone": "65705079", "coordinate": {"lng": 121.544808210532, "lat": 31.26220931349209}},
{"id": "115", "name": "明海油气站", "address": "杏山路5号", "chargeable": "是", "phone": "62579630", "coordinate": {"lng": 121.41659864177345, "lat": 31.23767602004957}},
{"id": "117", "name": "五环加油站", "address": "三门路560号", "chargeable": "是", "phone": "65918903", "coordinate": {"lng": 121.49518016202254, "lat": 31.316956066331596}},
{"id": "118", "name": "欣浦加油站", "address": "中山北二路567号", "chargeable": "是", "phone": "65632564", "coordinate": {"lng": 121.52191440323709, "lat": 31.290029187021602}},
{"id": "119", "name": "宜川加油站", "address": "沪太路684号", "chargeable": "是", "phone": "56530997 56533187", "coordinate": {"lng": 121.45226940047252, "lat": 31.269056168988218}},
{"id": "120", "name": "方东加油站", "address": "方松路邱泾村", "chargeable": "是", "phone": "67701337", "coordinate": {"lng": 121.23790032745396, "lat": 31.045508787224225}},
{"id": "121", "name": "松莘加油站", "address": "莘松路1018号", "chargeable": "是", "phone": "57688298", "coordinate": {"lng": 121.36281663814509, "lat": 31.105456708490074}},
{"id": "122", "name": "宝湾加油站", "address": "蕴川路1459号", "chargeable": "否", "phone": "56809104", "coordinate": {"lng": 121.43962814081054, "lat": 31.368875312400004}},
{"id": "123", "name": "富欣加油站", "address": "富锦路2685号", "chargeable": "否", "phone": "56391328", "coordinate": {"lng": 125.30108249922131, "lat": 43.881664086016116}},
{"id": "124", "name": "沪淞油气站", "address": "同济路555号", "chargeable": "否", "phone": "56112704", "coordinate": {"lng": 121.49036333558985, "lat": 31.395652673494205}},
{"id": "125", "name": "敏光加油站", "address": "锦秋路2750号", "chargeable": "否", "phone": "56134839", "coordinate": {"lng": 121.36177334971903, "lat": 31.32379050203868}},
{"id": "126", "name": "明园加油站", "address": "祁连山路2479号", "chargeable": "否", "phone": "66120439", "coordinate": {"lng": 121.38847413264655, "lat": 31.316025105761483}},
{"id": "127", "name": "顾村加油站", "address": "沪太路4395号", "chargeable": "否", "phone": "56043883", "coordinate": {"lng": 121.4010258448684, "lat": 31.351779517862347}},
{"id": "128", "name": "润高加油站", "address": "高境路201号", "chargeable": "否", "phone": "56884116", "coordinate": {"lng": 121.48180566677618, "lat": 31.32592041489329}},
{"id": "129", "name": "三鼎加油站", "address": "铁山路150号", "chargeable": "否", "phone": "33790184", "coordinate": {"lng": 121.4706152495637, "lat": 31.37635576311793}},
{"id": "130", "name": "新三加油站", "address": "江杨南路2546号", "chargeable": "否", "phone": "66203108", "coordinate": {"lng": 121.46732151449606, "lat": 31.35693762910098}},
{"id": "131", "name": "杨行加油站", "address": "蕴川路1718号", "chargeable": "否", "phone": "56801528", "coordinate": {"lng": 121.4363928036858, "lat": 31.379008654335024}},
{"id": "132", "name": "振宝加油站", "address": "富锦路1589号", "chargeable": "否", "phone": "56930858", "coordinate": {"lng": 125.30108249922131, "lat": 43.881664086016116}},
{"id": "133", "name": "正顺东加油站", "address": "江杨北路1289号", "chargeable": "否", "phone": "56807247", "coordinate": {"lng": 121.45288248230511, "lat": 31.395261207014638}},
{"id": "134", "name": "正顺西加油站", "address": "江杨北路1338号", "chargeable": "否", "phone": "36020009", "coordinate": {"lng": 121.45054574263965, "lat": 31.397637868462315}},
{"id": "135", "name": "大中加油站", "address": "场中路3930号", "chargeable": "否", "phone": "56500992", "coordinate": {"lng": 121.42707315351143, "lat": 31.308864734553424}},
{"id": "136", "name": "华星加油站", "address": "宝安公路628号", "chargeable": "否", "phone": "56491258", "coordinate": {"lng": 121.42343003060044, "lat": 31.37207941607107}},
{"id": "141", "name": "第十九加油站", "address": "逸仙路3919号", "chargeable": "否", "phone": "56449321", "coordinate": {"lng": 121.50794064748672, "lat": 31.359559069354844}},
{"id": "142", "name": "明浦油气站", "address": "沪太路1880号", "chargeable": "否", "phone": "66513711", "coordinate": {"lng": 121.4230592550012, "lat": 31.298148622133006}},
{"id": "143", "name": "长兴岛二号站", "address": "长江隧桥长兴岛服务区（西区）", "chargeable": "否", "phone": "51850153", "coordinate": {"lng": 101.63741344787044, "lat": 26.603867626836042}},
{"id": "144", "name": "长兴岛一号站", "address": "长江隧桥长兴岛服务区（东区）", "chargeable": "否", "phone": "51850151", "coordinate": {"lng": 123.41852026061245, "lat": 41.83699328209635}},
{"id": "145", "name": "新河加油站", "address": "新河镇陈海公路", "chargeable": "否", "phone": "59683224", "coordinate": {"lng": 121.47221723550848, "lat": 31.63887652546142}},
{"id": "146", "name": "奉新加油站", "address": "奉新镇奉炮公路288号", "chargeable": "否", "phone": "57120843", "coordinate": {"lng": 121.53294152827057, "lat": 30.8384478833033}},
{"id": "147", "name": "四团加油站", "address": "新四平公路2528号", "chargeable": "否", "phone": "57533337", "coordinate": {"lng": 121.73639813058112, "lat": 30.949567689280993}},
{"id": "148", "name": "继光加油站", "address": "金汇镇浦星公路5511号", "chargeable": "否", "phone": "37561527", "coordinate": {"lng": 121.52265116197569, "lat": 30.997200096797282}},
{"id": "149", "name": "柘林加油站", "address": "沪杭公路3392号", "chargeable": "否", "phone": "57445245", "coordinate": {"lng": 121.47896853231452, "lat": 30.831353476612144}},
{"id": "150", "name": "钱桥加油站", "address": "钱桥镇金钱公路4348号", "chargeable": "否", "phone": "57595153", "coordinate": {"lng": 121.53490665852213, "lat": 30.89342743984252}},
{"id": "151", "name": "泰日加油站", "address": "沿浦公路2499号", "chargeable": "否", "phone": "57586702", "coordinate": {"lng": 121.54955670825439, "lat": 30.984054763733077}},
{"id": "152", "name": "南桥加油站", "address": "南桥镇沪杭支路67号", "chargeable": "否", "phone": "57412285", "coordinate": {"lng": 121.46259469318508, "lat": 30.927937959777378}},
{"id": "153", "name": "海边加油站", "address": "青村镇海边村一组", "chargeable": "否", "phone": "57597146", "coordinate": {"lng": 121.53492481615855, "lat": 30.866543674053432}},
{"id": "154", "name": "洪庙北加油站", "address": "川南奉公路8919号", "chargeable": "否", "phone": "57130364", "coordinate": {"lng": 121.69204204756728, "lat": 30.933714164086744}},
{"id": "155", "name": "金泰加油站", "address": "大叶公路7029号", "chargeable": "否", "phone": "57580077", "coordinate": {"lng": 121.60489874785848, "lat": 30.989732097837326}},
{"id": "156", "name": "平贤加油站", "address": "金汇镇浦星公路6650号", "chargeable": "否", "phone": "57577408", "coordinate": {"lng": 121.52800781791815, "lat": 30.955039093538314}},
{"id": "157", "name": "伊宁路加油站", "address": "伊宁路安晓路口", "chargeable": "否", "phone": "69568532", "coordinate": {"lng": 121.23798763107155, "lat": 31.336924833148885}},
{"id": "158", "name": "百安加油站", "address": "宝安公路4928号", "chargeable": "否", "phone": "59504720", "coordinate": {"lng": 121.204081200089, "lat": 31.32080935955686}},
{"id": "159", "name": "安亭加油站", "address": "曹安公路5387号", "chargeable": "否", "phone": "59577399", "coordinate": {"lng": 121.17700490120406, "lat": 31.294583473486963}},
{"id": "160", "name": "宝钱加油站", "address": "宝钱路336号", "chargeable": "否", "phone": "39533345", "coordinate": {"lng": 121.17071944407616, "lat": 31.395445545918943}},
{"id": "161", "name": "曹王加油站", "address": "嘉罗公路2702号", "chargeable": "否", "phone": "39972654", "coordinate": {"lng": 121.33776087987762, "lat": 31.419656980666744}},
{"id": "162", "name": "丰庄加油站", "address": "金沙江路2960号", "chargeable": "否", "phone": "69195731", "coordinate": {"lng": 121.36461877733714, "lat": 31.248023690897703}},
{"id": "163", "name": "华亭加油站", "address": "浏翔公路6001号", "chargeable": "否", "phone": "59974330", "coordinate": {"lng": 121.29243757066016, "lat": 31.453544525715017}},
{"id": "164", "name": "黄渡加油站", "address": "曹安公路4680号", "chargeable": "否", "phone": "59596307", "coordinate": {"lng": 121.22520281230771, "lat": 31.283337687478944}},
{"id": "169", "name": "嘉黄加油站", "address": "博园路3999号", "chargeable": "否", "phone": "69596209", "coordinate": {"lng": 121.24574327206487, "lat": 31.270661035316326}},
{"id": "170", "name": "钱冈加油站", "address": "宝钱公路5009号", "chargeable": "否", "phone": "69575114", "coordinate": {"lng": 121.1564070064875, "lat": 31.383788886914704}},
{"id": "171", "name": "润华油气站", "address": "宝安公路3888号", "chargeable": "否", "phone": "59507700", "coordinate": {"lng": 121.26317292589185, "lat": 31.328926756043522}},
{"id": "172", "name": "胜辛加油站", "address": "胜辛路1616号", "chargeable": "否", "phone": "69169063", "coordinate": {"lng": 118.48170420912224, "lat": 37.50142695442016}},
{"id": "173", "name": "建通加油站", "address": "环城路1685号", "chargeable": "否", "phone": "69992615", "coordinate": {"lng": 121.24950107894541, "lat": 31.396481162458617}},
{"id": "174", "name": "金仓加油站", "address": "金沙路118号", "chargeable": "否", "phone": "59532377", "coordinate": {"lng": 121.26462030357699, "lat": 31.387924237210516}},
{"id": "175", "name": "竹筱加油站", "address": "胜竹路3750号", "chargeable": "否", "phone": "39903406", "coordinate": {"lng": 121.22861786263617, "lat": 31.393042079723685}},
{"id": "176", "name": "大道加油站", "address": "金山大道3385号", "chargeable": "否", "phone": "57264383", "coordinate": {"lng": 121.32517246932541, "lat": 30.738865764573287}},
{"id": "177", "name": "金枫2号站", "address": "沪杭高速公路枫泾基地（北）", "chargeable": "否", "phone": "57350947", "coordinate": {"lng": 121.02355297097108, "lat": 30.892414639992907}},
{"id": "178", "name": "金枫1号站", "address": "沪杭高速公路枫泾基地（南）", "chargeable": "否", "phone": "57350977", "coordinate": {"lng": 121.02355297097108, "lat": 30.892414639992907}},
{"id": "179", "name": "金松加油站", "address": "松隐镇北首亭枫公路2060号", "chargeable": "否", "phone": "57381169", "coordinate": {"lng": 121.24646262703253, "lat": 30.901300196396818}},
{"id": "180", "name": "吕巷加油站", "address": "吕巷镇金张支路4980号", "chargeable": "否", "phone": "57371674", "coordinate": {"lng": 121.27615468252353, "lat": 30.800396124030573}},
{"id": "181", "name": "南茂加油站", "address": "朱行镇亭卫公路6511号", "chargeable": "否", "phone": "57270681", "coordinate": {"lng": 121.35308826255691, "lat": 30.845701093354865}},
{"id": "182", "name": "申堰加油站", "address": "张堰镇汽车站北首", "chargeable": "否", "phone": "57210900", "coordinate": {"lng": 115.86499398800564, "lat": 39.3208591710094}},
{"id": "183", "name": "亭卫加油站", "address": "亭卫公路1029号", "chargeable": "否", "phone": "67241440", "coordinate": {"lng": 121.36283919010492, "lat": 30.754797013842104}},
{"id": "184", "name": "兴塔加油站", "address": "亭枫公路6701号", "chargeable": "否", "phone": "57361740", "coordinate": {"lng": 121.08730809352382, "lat": 30.874052015969855}},
{"id": "185", "name": "永联北加油站", "address": "莘奉金高速沪浙收费站", "chargeable": "否", "phone": "57266339", "coordinate": {"lng": 121.2766588020384, "lat": 30.735057774650897}},
{"id": "186", "name": "永联南加油站", "address": "莘奉金高速沪浙收费站", "chargeable": "否", "phone": "57266055", "coordinate": {"lng": 121.2766588020384, "lat": 30.735057774650897}},
{"id": "187", "name": "源南加油站", "address": "亭枫公路1220号", "chargeable": "否", "phone": "57384840", "coordinate": {"lng": 121.28298416728688, "lat": 30.897130319488536}},
{"id": "188", "name": "朱泾加油站", "address": "朱泾镇亭枫公路3728号（汽车站东面）", "chargeable": "否", "phone": "57319350", "coordinate": {"lng": 121.17830912132992, "lat": 30.89865832536302}},
{"id": "189", "name": "朱卫加油站", "address": "吕巷镇朱吕公路2488号", "chargeable": "否", "phone": "57201928", "coordinate": {"lng": 121.29011693940909, "lat": 30.837970390530423}},
{"id": "190", "name": "勇敢加油站", "address": "廊下镇漕廊公路7803号", "chargeable": "否", "phone": "57392224", "coordinate": {"lng": 121.20324201026803, "lat": 30.794377468559542}},
{"id": "191", "name": "北翟加油站", "address": "北翟路1581号", "chargeable": "否", "phone": "62206447", "coordinate": {"lng": 121.34490460953046, "lat": 31.229370391138076}},
{"id": "192", "name": "虹南加油站", "address": "虹梅南路3280号", "chargeable": "否", "phone": "33505187", "coordinate": {"lng": 121.44404038301782, "lat": 31.094414380870678}},
{"id": "197", "name": "纪王加油站", "address": "纪鹤路155号", "chargeable": "否", "phone": "62961122", "coordinate": {"lng": 121.26700729355439, "lat": 31.250799666627483}},
{"id": "198", "name": "剑川加油站", "address": "剑川路碧江路口", "chargeable": "否", "phone": "64309098", "coordinate": {"lng": 121.3989854524528, "lat": 31.02426915663908}},
{"id": "199", "name": "交大加油站", "address": "沧源路交大三号门", "chargeable": "否", "phone": "54742474", "coordinate": {"lng": 121.43166996606031, "lat": 31.0296297767362}},
{"id": "200", "name": "金申加油站", "address": "沪闵路4028号", "chargeable": "否", "phone": "54426398", "coordinate": {"lng": 121.39929009120718, "lat": 31.08784885822011}},
{"id": "201", "name": "闵安加油站", "address": "漕宝路1790号", "chargeable": "否", "phone": "64790182", "coordinate": {"lng": 121.37647420922036, "lat": 31.163412446184097}},
{"id": "202", "name": "闵东加油站", "address": "三鲁公路2500号", "chargeable": "否", "phone": "64118467", "coordinate": {"lng": 121.53301200662597, "lat": 31.072570711084946}},
{"id": "203", "name": "闵建加油站", "address": "龙吴路3449号（双柏路口）", "chargeable": "否", "phone": "64342239", "coordinate": {"lng": 121.46388577439512, "lat": 31.097001979693857}},
{"id": "204", "name": "闵桥加油站", "address": "莘奉金高速公路颛桥服务区东侧", "chargeable": "否", "phone": "64894911", "coordinate": {"lng": 121.4222116660237, "lat": 31.071073282587026}},
{"id": "205", "name": "闵永加油站", "address": "虹梅南路505号", "chargeable": "否", "phone": "54302780", "coordinate": {"lng": 121.42504677839968, "lat": 31.137185120167146}},
{"id": "206", "name": "闵颛加油站", "address": "闵行区颛桥镇向阳路1469号", "chargeable": "否", "phone": "64899826", "coordinate": {"lng": 121.42011904806702, "lat": 31.07168564851799}},
{"id": "207", "name": "星莲加油站", "address": "莲花南路3777号", "chargeable": "否", "phone": "34306081", "coordinate": {"lng": 121.4454233027911, "lat": 31.052842121156566}},
{"id": "208", "name": "星桥加油站", "address": "莲花南路2288号", "chargeable": "否", "phone": "64423047", "coordinate": {"lng": 121.43383775332379, "lat": 31.077956158100832}},
{"id": "209", "name": "航津加油站", "address": "浦东北路3140号", "chargeable": "否", "phone": "58613424", "coordinate": {"lng": 121.57964953141472, "lat": 31.33772558412432}},
{"id": "210", "name": "航林加油站", "address": "S32航头服务区南侧", "chargeable": "否", "phone": "68146211", "coordinate": {"lng": 121.55697080989958, "lat": 31.06958646909625}},
{"id": "211", "name": "航园加油站", "address": "S32航头服务区北侧", "chargeable": "否", "phone": "68146209", "coordinate": {"lng": 121.55697080989958, "lat": 31.06958646909625}},
{"id": "212", "name": "沪南加油站", "address": "沪南公路2445号", "chargeable": "否", "phone": "68933042", "coordinate": {"lng": 121.5722001886829, "lat": 31.159030860827826}},
{"id": "213", "name": "华海加油站", "address": "华夏东路1200号", "chargeable": "否", "phone": "58373788", "coordinate": {"lng": 113.18352101134911, "lat": 23.10211316018187}},
{"id": "214", "name": "新场加油点", "address": "新奉路598号", "chargeable": "否", "phone": "58179240", "coordinate": {"lng": 121.65220700965305, "lat": 31.02179341392095}},
{"id": "215", "name": "郊合加油站", "address": "G1501合庆镇合庆服务区西侧", "chargeable": "否", "phone": "68911023", "coordinate": {"lng": 121.74289472094456, "lat": 31.229994808459903}},
{"id": "216", "name": "久华加油站", "address": "浦东国际机场迎宾大道出口处", "chargeable": "否", "phone": "68351125", "coordinate": {"lng": 121.81529668979385, "lat": 31.156453898481576}},
{"id": "217", "name": "浦东第二十八加油站", "address": "张江镇孙桥长远村赫家宅40号", "chargeable": "否", "phone": "50202032", "coordinate": {"lng": 121.6374986141378, "lat": 31.192204610664557}},
{"id": "218", "name": "凯隆加油站", "address": "孙桥中心村奚家宅68号", "chargeable": "否", "phone": "58577316", "coordinate": {"lng": 121.65049832285082, "lat": 31.176972694167016}},
{"id": "219", "name": "临彬加油站", "address": "万祥镇万和路393号", "chargeable": "否", "phone": "58046663", "coordinate": {"lng": 121.82421448659156, "lat": 30.977403268877477}},
{"id": "220", "name": "沪芦二号站", "address": "沪芦高速公路临港收费处北侧", "chargeable": "否", "phone": "58243402", "coordinate": {"lng": 121.69122928679269, "lat": 30.985080715091147}},
{"id": "225", "name": "沪芦一号站", "address": "沪芦高速公路临港收费处南侧", "chargeable": "否", "phone": "58244292", "coordinate": {"lng": 121.69122928679269, "lat": 30.985080715091147}},
{"id": "226", "name": "南泰加油站", "address": "沪南公路4828号", "chargeable": "否", "phone": "58140122", "coordinate": {"lng": 121.59296496846363, "lat": 31.0712644886597}},
{"id": "227", "name": "三灶加油站", "address": "宣桥镇南六公路320号", "chargeable": "否", "phone": "58037877", "coordinate": {"lng": 121.72098034872347, "lat": 31.061480770627654}},
{"id": "228", "name": "通源加油站", "address": "滨海旅游度假区通源西路6号", "chargeable": "否", "phone": "58058825", "coordinate": {"lng": 119.82762105908833, "lat": 33.99564654746655}},
{"id": "229", "name": "祝桥加油站", "address": "川南奉公路4887号", "chargeable": "否", "phone": "58107979", "coordinate": {"lng": 121.76741847663814, "lat": 31.12556575507428}},
{"id": "230", "name": "蔡路加油站", "address": "华夏东路3926号", "chargeable": "否", "phone": "68902870", "coordinate": {"lng": 113.18352101134911, "lat": 23.10211316018187}},
{"id": "231", "name": "富特加油站", "address": "外高桥保税区富特北路220号", "chargeable": "否", "phone": "58666130", "coordinate": {"lng": 121.60115608101903, "lat": 31.34935614331319}},
{"id": "232", "name": "济阳路加油站", "address": "归泾村路180号", "chargeable": "否", "phone": "68303070", "coordinate": {"lng": 121.4913910195509, "lat": 31.149145554758658}},
{"id": "233", "name": "锦绣加油站", "address": "锦绣路11号", "chargeable": "否", "phone": "58335885", "coordinate": {"lng": 121.57588053344413, "lat": 31.23221759419438}},
{"id": "234", "name": "联明加油站", "address": "联明路88号", "chargeable": "否", "phone": "58497561", "coordinate": {"lng": 113.21578117979594, "lat": 22.66679998149112}},
{"id": "235", "name": "林国加油站", "address": "上南路5318号", "chargeable": "否", "phone": "33937147", "coordinate": {"lng": 113.89737861852466, "lat": 22.791184238062737}},
{"id": "236", "name": "唐龙加油站", "address": "唐陆路2278号", "chargeable": "否", "phone": "58961545", "coordinate": {"lng": 121.65328127434249, "lat": 31.23205964395961}},
{"id": "237", "name": "杨思加油站", "address": "杨思路648号", "chargeable": "否", "phone": "58429245", "coordinate": {"lng": 118.18662753062782, "lat": 33.85558267579072}},
{"id": "238", "name": "张江加油站", "address": "龙东大道1918号", "chargeable": "否", "phone": "58955126", "coordinate": {"lng": 121.61230470726258, "lat": 31.224356477566985}},
{"id": "239", "name": "新唐加油站", "address": "唐陆路2851号", "chargeable": "否", "phone": "58960770", "coordinate": {"lng": 121.65856975432163, "lat": 31.22366396228286}},
{"id": "240", "name": "新元南路加油站", "address": "临港新城浩歌路1150号", "chargeable": "否", "phone": "68280368  68280369", "coordinate": {"lng": 121.8272552291835, "lat": 30.882804123598753}},
{"id": "241", "name": "宣桥加油点", "address": "南宣公路216号", "chargeable": "否", "phone": "58182106", "coordinate": {"lng": 121.70478590359986, "lat": 31.026874380107216}},
{"id": "242", "name": "周浦加油中心", "address": "沪南公路3651号", "chargeable": "否", "phone": "68125480", "coordinate": {"lng": 121.57622106848669, "lat": 31.11343148365157}},
{"id": "243", "name": "青浦第二十一加油站", "address": "沪青平高速西岑服务区（北）", "chargeable": "否", "phone": "59294074", "coordinate": {"lng": 121.34102509752451, "lat": 31.175065669281075}},
{"id": "244", "name": "青浦第二十加油站", "address": "沪青平高速西岑服务区（南）", "chargeable": "否", "phone": "59294468", "coordinate": {"lng": 121.34102509752451, "lat": 31.175065669281075}},
{"id": "245", "name": "淀山加油站", "address": "朱家角红星村", "chargeable": "否", "phone": "59241909", "coordinate": {"lng": 121.0661939165798, "lat": 31.114828823915623}},
{"id": "246", "name": "方黄加油站", "address": "赵巷镇垂姚村", "chargeable": "否", "phone": "59755942", "coordinate": {"lng": 121.22541515825569, "lat": 31.161464308703493}},
{"id": "247", "name": "广虹加油站", "address": "沪青平公路1455号", "chargeable": "否", "phone": "59885833", "coordinate": {"lng": 121.31692310974243, "lat": 31.17816147550517}},
{"id": "248", "name": "华新加油站", "address": "华新镇白华路", "chargeable": "否", "phone": "59791363", "coordinate": {"lng": 121.2337900236947, "lat": 31.251624723893666}},
{"id": "253", "name": "金泽加油站", "address": "金泽镇金姚村", "chargeable": "否", "phone": "59263159", "coordinate": {"lng": 120.92858303269298, "lat": 31.069539589907833}},
{"id": "254", "name": "里浜加油站", "address": "赵巷镇里浜村", "chargeable": "否", "phone": "69719167", "coordinate": {"lng": 121.15904178595507, "lat": 31.156540554341245}},
{"id": "255", "name": "练塘加油点", "address": "练塘镇王家村", "chargeable": "否", "phone": "59251765", "coordinate": {"lng": 121.05572376521677, "lat": 31.016414743744246}},
{"id": "256", "name": "卫家角加油站", "address": "沪青平公路1538号", "chargeable": "否", "phone": "59760125 59760071", "coordinate": {"lng": 121.31102914942697, "lat": 31.179415037613587}},
{"id": "257", "name": "商榻加油站", "address": "商塌镇青商公路湖雪村", "chargeable": "否", "phone": "59284807", "coordinate": {"lng": 120.91493723480973, "lat": 31.097258184632743}},
{"id": "258", "name": "兴路加油站", "address": "沪青平公路5980号", "chargeable": "否", "phone": "33865696", "coordinate": {"lng": 121.09354461995058, "lat": 31.134091143672848}},
{"id": "259", "name": "徐泾加油站", "address": "沪青平公路2097号", "chargeable": "否", "phone": "39811573", "coordinate": {"lng": 121.26905992793283, "lat": 31.164091805921743}},
{"id": "260", "name": "赵天昆加油站", "address": "赵巷镇赵天昆公路", "chargeable": "否", "phone": "59753106", "coordinate": {"lng": 121.21010784911135, "lat": 31.165832537545906}},
{"id": "261", "name": "赵屯加油站", "address": "白石公路2318号", "chargeable": "否", "phone": "59210427", "coordinate": {"lng": 121.0983512775649, "lat": 31.262334666679564}},
{"id": "262", "name": "中兴加油站", "address": "嘉松中路2688号", "chargeable": "否", "phone": "39872559", "coordinate": {"lng": 121.22447914367702, "lat": 31.22177384732608}},
{"id": "263", "name": "青实加油站", "address": "沪青平公路3879号", "chargeable": "否", "phone": "59754306", "coordinate": {"lng": 121.18145283219094, "lat": 31.151801794011693}},
{"id": "264", "name": "爱使加油站", "address": "沪太路1289号", "chargeable": "否", "phone": "56056213", "coordinate": {"lng": 121.43044309812362, "lat": 31.287690463107346}},
{"id": "265", "name": "安顺路加油站", "address": "凯旋路1309号", "chargeable": "否", "phone": "62802051", "coordinate": {"lng": 121.42575619541346, "lat": 31.208557554562944}},
{"id": "266", "name": "宝乐加油站", "address": "共和新路2941号", "chargeable": "否", "phone": "66528713", "coordinate": {"lng": 121.45817426082704, "lat": 31.293223162093344}},
{"id": "267", "name": "保德加油站", "address": "保德路35号", "chargeable": "否", "phone": "56790939", "coordinate": {"lng": 121.47329258894973, "lat": 31.324845737403642}},
{"id": "268", "name": "成都路油气站", "address": "成都北路118号", "chargeable": "否", "phone": "63270651", "coordinate": {"lng": 121.47486088843787, "lat": 31.232156187041042}},
{"id": "269", "name": "大连路加油站", "address": "大连路1035号", "chargeable": "否", "phone": "65034074", "coordinate": {"lng": 121.51255140712695, "lat": 31.27362099848071}},
{"id": "270", "name": "大田路加油站", "address": "大田路180号", "chargeable": "否", "phone": "62176244", "coordinate": {"lng": 121.47077239284148, "lat": 31.239816741236986}},
{"id": "271", "name": "第一加油站", "address": "南苏州路198号", "chargeable": "否", "phone": "63236827", "coordinate": {"lng": 121.49279501626636, "lat": 31.249310132602524}},
{"id": "272", "name": "胜利加油站", "address": "高阳路551号", "chargeable": "否", "phone": "65845697", "coordinate": {"lng": 121.5058300229961, "lat": 31.26277017190467}},
{"id": "273", "name": "海明加油站", "address": "四平路754号", "chargeable": "否", "phone": "65073739", "coordinate": {"lng": 121.50464785294494, "lat": 31.277071518639413}},
{"id": "274", "name": "和贝加油站", "address": "民和路251号", "chargeable": "否", "phone": "56624734", "coordinate": {"lng": 121.47049635808088, "lat": 31.273235723419546}},
{"id": "275", "name": "虹建加油站", "address": "场中路242号", "chargeable": "否", "phone": "65613065", "coordinate": {"lng": 121.48243504836225, "lat": 31.312729843291965}},
{"id": "276", "name": "晋元加油站", "address": "晋元路327号", "chargeable": "否", "phone": "63530301", "coordinate": {"lng": 121.47607751569176, "lat": 31.251034705337677}},
{"id": "281", "name": "军工海安油气站", "address": "军工路460号", "chargeable": "否", "phone": "65687227", "coordinate": {"lng": 121.56052723914242, "lat": 31.294714098210978}},
{"id": "282", "name": "凉城加油站", "address": "凉城路1321号", "chargeable": "否", "phone": "65263144", "coordinate": {"lng": 121.47781906058395, "lat": 31.311790316812996}},
{"id": "283", "name": "第二加油站", "address": "宛平路288号", "chargeable": "否", "phone": "64730492", "coordinate": {"lng": 121.45043941919948, "lat": 31.204383475777394}},
{"id": "284", "name": "第六加油站", "address": "杨树浦路9号", "chargeable": "否", "phone": "65352689", "coordinate": {"lng": 121.51810684370588, "lat": 31.256873896159238}},
{"id": "285", "name": "第七加油站", "address": "陕西南路173号", "chargeable": "否", "phone": "64457894", "coordinate": {"lng": 121.4671287030997, "lat": 31.220189682453665}},
{"id": "286", "name": "明阳油气站", "address": "平凉路988号", "chargeable": "否", "phone": "55214988", "coordinate": {"lng": 121.53763498232284, "lat": 31.265853758071575}},
{"id": "287", "name": "森新加油站", "address": "军工路1800号", "chargeable": "否", "phone": "65561018", "coordinate": {"lng": 121.55234658825299, "lat": 31.322438839953318}},
{"id": "288", "name": "新复加油站", "address": "光复西路115号", "chargeable": "否", "phone": "62042544", "coordinate": {"lng": 121.43973246911418, "lat": 31.255374755284354}},
{"id": "289", "name": "新炼加油站", "address": "中山北路157号", "chargeable": "否", "phone": "56627763", "coordinate": {"lng": 121.47718950562492, "lat": 31.271898414367293}},
{"id": "290", "name": "新市南路加油站", "address": "新市南路1221号", "chargeable": "否", "phone": "65364889", "coordinate": {"lng": 121.48779551312008, "lat": 31.30594294266264}},
{"id": "291", "name": "新杨加油站", "address": "南大路2889号", "chargeable": "否", "phone": "66958186", "coordinate": {"lng": 121.36215140518613, "lat": 31.299020445172157}},
{"id": "292", "name": "延安中路油气站", "address": "延安中路990号", "chargeable": "否", "phone": "62722717", "coordinate": {"lng": 121.4621404458401, "lat": 31.230501985268575}},
{"id": "293", "name": "营口加油站", "address": "营口路841号", "chargeable": "否", "phone": "65340731", "coordinate": {"lng": 121.53801625372365, "lat": 31.30713507641806}},
{"id": "294", "name": "远中加油站", "address": "虹梅路2028号", "chargeable": "否", "phone": "64850162", "coordinate": {"lng": 121.40333304361253, "lat": 31.178013931218416}},
{"id": "295", "name": "真北油气站", "address": "真北路3638号", "chargeable": "否", "phone": "66360001", "coordinate": {"lng": 121.40802396085003, "lat": 31.287061768003976}},
{"id": "296", "name": "政本加油站", "address": "中山北二路768号", "chargeable": "否", "phone": "55067177", "coordinate": {"lng": 121.51913620749825, "lat": 31.29064860229021}},
{"id": "297", "name": "中华新路加油站", "address": "中华新路970号", "chargeable": "否", "phone": "56325934", "coordinate": {"lng": 121.46026541813897, "lat": 31.26061725814422}},
{"id": "298", "name": "中田加油站", "address": "中山北路558号", "chargeable": "否", "phone": "56304515", "coordinate": {"lng": 121.47177047943259, "lat": 31.268024248942663}},
{"id": "299", "name": "大港加油站", "address": "大港镇南首", "chargeable": "否", "phone": "57853739", "coordinate": {"lng": 119.71805832925837, "lat": 32.20502935117406}},
{"id": "300", "name": "富林加油站", "address": "龙源路1651号", "chargeable": "否", "phone": "57790192", "coordinate": {"lng": 121.20711544972873, "lat": 31.07433026862239}},
{"id": "301", "name": "花辰加油站", "address": "辰花公路650号", "chargeable": "否", "phone": "57678687", "coordinate": {"lng": 121.48964606109777, "lat": 31.20464388087562}},
{"id": "302", "name": "东开加油站", "address": "新桥镇三家桥村", "chargeable": "否", "phone": "57686207", "coordinate": {"lng": 108.8861586056386, "lat": 27.223503578637143}},
{"id": "303", "name": "方西加油站", "address": "方松路玉湖村", "chargeable": "否", "phone": "67702026", "coordinate": {"lng": 121.23794875330738, "lat": 31.06216736996259}},
{"id": "304", "name": "华阳加油站", "address": "北松公路香山村", "chargeable": "否", "phone": "57774122", "coordinate": {"lng": 121.34812718981864, "lat": 31.01989469543434}},
{"id": "309", "name": "松江加油站", "address": "沪松路1号", "chargeable": "否", "phone": "57837628", "coordinate": {"lng": 121.24963308943163, "lat": 31.020067993499612}},
{"id": "310", "name": "乐都加油站", "address": "乐都路53号", "chargeable": "否", "phone": "57727802", "coordinate": {"lng": 102.11556726090939, "lat": 36.505372292489646}},
{"id": "311", "name": "松泾加油站", "address": "莘砖公路3638号", "chargeable": "否", "phone": "57678000", "coordinate": {"lng": 121.28688750774478, "lat": 31.098926548832164}},
{"id": "312", "name": "松昆加油站", "address": "小昆山镇秦安街218号", "chargeable": "否", "phone": "57767291", "coordinate": {"lng": 121.14039933974044, "lat": 31.05940037607877}},
{"id": "313", "name": "松炼加油站", "address": "中山街道五龙村七队", "chargeable": "否", "phone": "57783780", "coordinate": {"lng": 121.26330600266671, "lat": 31.047238465899873}},
{"id": "314", "name": "松砖加油站", "address": "沪松公路3391号砖桥加油站", "chargeable": "否", "phone": "57676074   57676519", "coordinate": {"lng": 121.27270357365762, "lat": 31.09918539170497}},
{"id": "315", "name": "同三加油站", "address": "小昆山镇秦安街218号", "chargeable": "否", "phone": "57764129", "coordinate": {"lng": 121.14039933974044, "lat": 31.05940037607877}},
{"id": "316", "name": "砖莘加油站", "address": "泗泾镇张泗村南侧砖莘加油站", "chargeable": "否", "phone": "57628220", "coordinate": {"lng": 121.31087796460965, "lat": 31.09846414314071}},
{"id": "317", "name": "玉树加油站", "address": "荣乐西路129号", "chargeable": "否", "phone": "57705428", "coordinate": {"lng": 109.7214028788558, "lat": 38.301294566067575}},
{"id": "318", "name": "云山加油站", "address": "佘山镇外青松公路张朴桥佘山加油站", "chargeable": "否", "phone": "57667419", "coordinate": {"lng": 121.12616758346117, "lat": 31.1980928489199}},
{"id": "319", "name": "宝山泰和路加油站", "address": "泰和路1781号", "chargeable": "否", "phone": "56805200", "coordinate": {"lng": 121.45545456798058, "lat": 31.367516095820356}},
{"id": "320", "name": "奉南加油站", "address": "沪杭公路2178号", "chargeable": "否", "phone": "57109442", "coordinate": {"lng": 121.44784510390362, "lat": 30.911390872833326}},
{"id": "321", "name": "化工区二站", "address": "化工区天华路188号", "chargeable": "否", "phone": "67250132", "coordinate": {"lng": 121.44456965025141, "lat": 30.81010785613965}},
{"id": "322", "name": "沪实油气站", "address": "新村路19号", "chargeable": "否", "phone": "56617142", "coordinate": {"lng": 116.47724917650774, "lat": 39.74696424293305}},
{"id": "323", "name": "开城加油站", "address": "龙华东路749号", "chargeable": "否", "phone": "63038771", "coordinate": {"lng": 121.480125669286, "lat": 31.200101563116608}}
]